[{"city": "Bielefeld", "mitglieder": 1, "id": "be138c07-607f-4ffa-a157-e6a88c32c563", "location": {"lat": "52.022999", "lng": "8.533261"}}, {"city": "Frankfurt am Main", "mitglieder": 1, "id": "774f2633-7475-4b1a-9146-a97a431efdd6", "location": {"lat": "50.112080", "lng": "8.683415"}}, {"city": "Pforzheim", "mitglieder": 1, "id": "b135d923-8666-4ccd-8c5d-16ad8c8aec01", "location": {"lat": "48.890135", "lng": "8.700255"}}, {"city": "K\u00f6ln", "mitglieder": 3, "id": "9bcefc55-e660-4d03-bb47-a123139f2f41", "location": {"lat": "50.941665", "lng": "6.955180"}}, {"city": "Hamburg", "mitglieder": 7, "id": "62d9455b-d7eb-42ae-88fe-4e9f0d73c802", "location": {"lat": "53.553345", "lng": "9.992455"}}, {"city": "D\u00fcsseldorf, Germany", "mitglieder": 1, "id": "788769ba-fa1d-43d9-9816-4f650493bf08", "location": {"lat": "51.215630", "lng": "6.776040"}}, {"city": "Kiel, Schleswig-Holstein", "mitglieder": 1, "id": "690350d8-02ae-49f6-b438-986d7949153c", "location": {"lat": "54.323240", "lng": "10.132200"}}, {"city": "Frankfurt am Main", "mitglieder": 1, "id": "6aad50a1-88a7-475f-b045-b3db83072c41", "location": {"lat": "50.112080", "lng": "8.683415"}}, {"city": "Wiesbaden", "mitglieder": 1, "id": "3bafcddd-c815-4c3e-8c1a-0b2ce4e72c29", "location": {"lat": "50.084592", "lng": "8.242302"}}, {"city": "Gelnhausen, Hessen", "mitglieder": 1, "id": "e805bb51-b96c-4c89-bf50-0f78d087f050", "location": {"lat": "50.202965", "lng": "9.190510"}}, {"city": "Stuttgart", "mitglieder": 1, "id": "d62f5268-feaa-4ffc-b3f9-004e14cf569a", "location": {"lat": "48.767675", "lng": "9.171925"}}, {"city": "T\u00fcbingen", "mitglieder": 1, "id": "2f206ad5-705a-422c-b132-9d68c5f59e76", "location": {"lat": "48.520369", "lng": "9.049110"}}, {"city": "Augsburg, M\u00fcnchen, Plauen", "mitglieder": 1, "id": "64b3620a-b5f6-4794-b2bd-27ceb0a919cf", "location": {"lat": "50.494005", "lng": "12.135700"}}, {"city": "Hamburg", "mitglieder": 7, "id": "831560ff-030c-41b9-bb73-58cb81b3fac8", "location": {"lat": "53.553345", "lng": "9.992455"}}, {"city": "Berlin", "mitglieder": 3, "id": "4252ec2a-7b07-42f1-819a-28e0fdafb3b3", "location": {"lat": "52.516074", "lng": "13.376987"}}, {"city": "M\u00fcnster, NRW", "mitglieder": 1, "id": "3b49da48-f3aa-4d9b-a38b-bcc55826a055", "location": {"lat": "51.963009", "lng": "7.617810"}}, {"city": "L\u00fcbeck", "mitglieder": 1, "id": "aaa9dc5d-f449-48a4-b881-bf67254453d2", "location": {"lat": "53.866275", "lng": "10.680880"}}, {"city": "Karlsruhe", "mitglieder": 1, "id": "8e7e4f4f-c781-4d9e-a8af-41c383551579", "location": {"lat": "49.010760", "lng": "8.408695"}}, {"city": "Euskirchen", "mitglieder": 1, "id": "42b8f52c-536e-4a5b-922c-b89cef30e4a2", "location": {"lat": "50.662105", "lng": "6.786290"}}, {"city": "Maskat, Sultanat Oman", "mitglieder": 1, "id": "e027eb75-7194-4564-b44a-a3f5c43fafe0", "location": {"lat": "23.615170", "lng": "58.591171"}}, {"city": "M\u00fcnster, NRW", "mitglieder": 1, "id": "b39fb86d-78f0-4611-b44a-e444fd4d1e51", "location": {"lat": "51.963009", "lng": "7.617810"}}, {"city": "Remagen", "mitglieder": 1, "id": "8167a12c-6061-449b-af2b-c3f6827a523c", "location": {"lat": "50.579317", "lng": "7.225322"}}, {"city": "Rechberghausen, Germany", "mitglieder": 1, "id": "ab960b1e-1949-40b7-883d-32c4f857ed6a", "location": {"lat": "48.730700", "lng": "9.644045"}}, {"city": "Remagen", "mitglieder": 1, "id": "2509984f-0896-4703-a29b-6ba43142eb64", "location": {"lat": "50.579317", "lng": "7.225322"}}, {"city": "M\u00fcnchen", "mitglieder": 1, "id": "ae3a2c6f-3924-4c67-8138-a6f8fedc86df", "location": {"lat": "48.136415", "lng": "11.577531"}}, {"city": "Eschweiler", "mitglieder": 1, "id": "4032bcb5-9e34-4df6-9285-90f518b61f2d", "location": {"lat": "50.817380", "lng": "6.266255"}}, {"city": "Arnsberg", "mitglieder": 1, "id": "d1345a7b-0666-4468-a4a4-3f4a967a6715", "location": {"lat": "51.395360", "lng": "8.062770"}}, {"city": "Paderborn / Schlangen", "mitglieder": 1, "id": "be15507e-aa04-468a-88dd-527fdb59a043", "location": {"lat": "51.806640", "lng": "8.841323"}}, {"city": "T\u00f6nisvorst", "mitglieder": 1, "id": "a5eb72b5-a810-45b9-bf92-40b64a9b2d55", "location": {"lat": "51.320625", "lng": "6.495360"}}]